[
  {
    "studenttype" : "理科",
    "province" : "广东",
    "num" : "0",
    "schoolid" : "98",
    "localprovince" : "广东",
    "longitude" : 113.518066,
    "fencha" : "65",
    "provincescore" : "485",
    "var_score" : "550",
    "var" : "550",
    "min" : "526",
    "schoolname" : "华南师范大学",
    "latitude" : 23.354552999999999,
    "year" : "2017",
    "batch" : "本科一批",
    "max" : "601"
  },
  {
    "studenttype" : "理科",
    "province" : "广东",
    "num" : "0",
    "schoolid" : "104",
    "localprovince" : "广东",
    "longitude" : 113.39183800000001,
    "fencha" : "124",
    "provincescore" : "485",
    "var_score" : "609",
    "var" : "609",
    "min" : "581",
    "schoolname" : "中山大学",
    "latitude" : 22.530892000000001,
    "year" : "2017",
    "batch" : "本科一批",
    "max" : "659"
  },
  {
    "studenttype" : "理科",
    "province" : "广东",
    "num" : "0",
    "schoolid" : "105",
    "localprovince" : "广东",
    "longitude" : 113.367149,
    "fencha" : "115",
    "provincescore" : "485",
    "var_score" : "600",
    "var" : "600",
    "min" : "573",
    "schoolname" : "华南理工大学",
    "latitude" : 23.110703999999998,
    "year" : "2017",
    "batch" : "本科一批",
    "max" : "641"
  },
  {
    "studenttype" : "理科",
    "province" : "广东",
    "num" : "0",
    "schoolid" : "106",
    "localprovince" : "广东",
    "longitude" : 113.347717,
    "fencha" : "73",
    "provincescore" : "485",
    "var_score" : "558",
    "var" : "558",
    "min" : "541",
    "schoolname" : "暨南大学",
    "latitude" : 23.128052,
    "year" : "2017",
    "batch" : "本科一批",
    "max" : "583"
  },
  {
    "studenttype" : "理科",
    "province" : "广东",
    "num" : "0",
    "schoolid" : "106",
    "localprovince" : "广东",
    "longitude" : 113.347717,
    "fencha" : "73",
    "provincescore" : "485",
    "var_score" : "558",
    "var" : "558",
    "min" : "541",
    "schoolname" : "暨南大学",
    "latitude" : 23.128052,
    "year" : "2017",
    "batch" : "本科一批",
    "max" : "583"
  },
  {
    "studenttype" : "理科",
    "province" : "广东",
    "num" : "0",
    "schoolid" : "283",
    "localprovince" : "广东",
    "longitude" : 116.631809,
    "fencha" : "56",
    "provincescore" : "485",
    "var_score" : "541",
    "var" : "541",
    "min" : "533",
    "schoolname" : "汕头大学",
    "latitude" : 23.412535999999999,
    "year" : "2017",
    "batch" : "本科一批",
    "max" : "602"
  },
  {
    "studenttype" : "理科",
    "province" : "广东",
    "num" : "0",
    "schoolid" : "284",
    "localprovince" : "广东",
    "longitude" : 113.935097,
    "fencha" : "74",
    "provincescore" : "485",
    "var_score" : "559",
    "var" : "559",
    "min" : "546",
    "schoolname" : "深圳大学",
    "latitude" : 22.527939,
    "year" : "2017",
    "batch" : "本科一批",
    "max" : "616"
  },
  {
    "studenttype" : "理科",
    "province" : "广东",
    "num" : "0",
    "schoolid" : "284",
    "localprovince" : "广东",
    "longitude" : 113.935097,
    "fencha" : "74",
    "provincescore" : "485",
    "var_score" : "559",
    "var" : "559",
    "min" : "546",
    "schoolname" : "深圳大学",
    "latitude" : 22.527939,
    "year" : "2017",
    "batch" : "本科一批",
    "max" : "616"
  },
  {
    "studenttype" : "理科",
    "province" : "广东",
    "num" : "0",
    "schoolid" : "285",
    "localprovince" : "广东",
    "longitude" : 113.084587,
    "fencha" : "99",
    "provincescore" : "360",
    "var_score" : "459",
    "var" : "459",
    "min" : "448",
    "schoolname" : "五邑大学",
    "latitude" : 22.590401,
    "year" : "2017",
    "batch" : "本科二批",
    "max" : "518"
  },
  {
    "studenttype" : "理科",
    "province" : "广东",
    "num" : "0",
    "schoolid" : "286",
    "localprovince" : "广东",
    "longitude" : 113.39311600000001,
    "fencha" : "36",
    "provincescore" : "485",
    "var_score" : "521",
    "var" : "521",
    "min" : "504",
    "schoolname" : "广东工业大学",
    "latitude" : 23.039404000000001,
    "year" : "2017",
    "batch" : "本科一批",
    "max" : "578"
  },
  {
    "studenttype" : "理科",
    "province" : "广东",
    "num" : "0",
    "schoolid" : "287",
    "localprovince" : "广东",
    "longitude" : 113.360382,
    "fencha" : "40",
    "provincescore" : "485",
    "var_score" : "525",
    "var" : "525",
    "min" : "514",
    "schoolname" : "华南农业大学",
    "latitude" : 23.167627,
    "year" : "2017",
    "batch" : "本科一批",
    "max" : "--"
  },
  {
    "studenttype" : "理科",
    "province" : "广东",
    "num" : "0",
    "schoolid" : "288",
    "localprovince" : "广东",
    "longitude" : 110.30150999999999,
    "fencha" : "89",
    "provincescore" : "360",
    "var_score" : "449",
    "var" : "449",
    "min" : "433",
    "schoolname" : "广东海洋大学",
    "latitude" : 21.15053,
    "year" : "2017",
    "batch" : "本科二批",
    "max" : "492"
  },
  {
    "studenttype" : "理科",
    "province" : "广东",
    "num" : "0",
    "schoolid" : "288",
    "localprovince" : "广东",
    "longitude" : 110.30150999999999,
    "fencha" : "89",
    "provincescore" : "360",
    "var_score" : "449",
    "var" : "449",
    "min" : "433",
    "schoolname" : "广东海洋大学",
    "latitude" : 21.15053,
    "year" : "2017",
    "batch" : "本科二批",
    "max" : "492"
  },
  {
    "studenttype" : "理科",
    "province" : "广东",
    "num" : "0",
    "schoolid" : "289",
    "localprovince" : "广东",
    "longitude" : 113.40272,
    "fencha" : "27",
    "provincescore" : "485",
    "var_score" : "512",
    "var" : "512",
    "min" : "465",
    "schoolname" : "广州中医药大学",
    "latitude" : 23.056325000000001,
    "year" : "2017",
    "batch" : "本科一批",
    "max" : "605"
  },
  {
    "studenttype" : "理科",
    "province" : "广东",
    "num" : "0",
    "schoolid" : "290",
    "localprovince" : "广东",
    "longitude" : 113.292429,
    "fencha" : "57",
    "provincescore" : "485",
    "var_score" : "542",
    "var" : "542",
    "min" : "529",
    "schoolname" : "广东外语外贸大学",
    "latitude" : 23.200437999999998,
    "year" : "2017",
    "batch" : "本科一批",
    "max" : "609"
  },
  {
    "studenttype" : "理科",
    "province" : "广东",
    "num" : "0",
    "schoolid" : "291",
    "localprovince" : "广东",
    "longitude" : 113.87785700000001,
    "fencha" : "12",
    "provincescore" : "485",
    "var_score" : "497",
    "var" : "497",
    "min" : "493",
    "schoolname" : "东莞理工学院",
    "latitude" : 22.900500000000001,
    "year" : "2017",
    "batch" : "本科一批",
    "max" : "--"
  },
  {
    "studenttype" : "理科",
    "province" : "广东",
    "num" : "0",
    "schoolid" : "292",
    "localprovince" : "广东",
    "longitude" : 110.92286,
    "fencha" : "69",
    "provincescore" : "360",
    "var_score" : "429",
    "var" : "429",
    "min" : "419",
    "schoolname" : "广东石油化工学院",
    "latitude" : 21.67765,
    "year" : "2017",
    "batch" : "本科二批",
    "max" : "493"
  },
  {
    "studenttype" : "理科",
    "province" : "广东",
    "num" : "0",
    "schoolid" : "293",
    "localprovince" : "广东",
    "longitude" : 113.370555,
    "fencha" : "28",
    "provincescore" : "485",
    "var_score" : "513",
    "var" : "513",
    "min" : "503",
    "schoolname" : "广州大学",
    "latitude" : 23.039919000000001,
    "year" : "2017",
    "batch" : "本科一批",
    "max" : "558"
  },
  {
    "studenttype" : "理科",
    "province" : "广东",
    "num" : "0",
    "schoolid" : "294",
    "localprovince" : "广东",
    "longitude" : 113.256112,
    "fencha" : "12",
    "provincescore" : "485",
    "var_score" : "497",
    "var" : "497",
    "min" : "481",
    "schoolname" : "广东医科大学",
    "latitude" : 23.134056999999999,
    "year" : "2017",
    "batch" : "本科一批",
    "max" : "581"
  },
  {
    "studenttype" : "理科",
    "province" : "广东",
    "num" : "0",
    "schoolid" : "294",
    "localprovince" : "广东",
    "longitude" : 113.256112,
    "fencha" : "12",
    "provincescore" : "485",
    "var_score" : "497",
    "var" : "497",
    "min" : "481",
    "schoolname" : "广东医科大学",
    "latitude" : 23.134056999999999,
    "year" : "2017",
    "batch" : "本科一批",
    "max" : "581"
  },
  {
    "studenttype" : "理科",
    "province" : "广东",
    "num" : "0",
    "schoolid" : "295",
    "localprovince" : "广东",
    "longitude" : 113.256112,
    "fencha" : "42",
    "provincescore" : "485",
    "var_score" : "527",
    "var" : "527",
    "min" : "509",
    "schoolname" : "广州医科大学",
    "latitude" : 23.134056999999999,
    "year" : "2017",
    "batch" : "本科一批",
    "max" : "--"
  },
  {
    "studenttype" : "理科",
    "province" : "广东",
    "num" : "0",
    "schoolid" : "296",
    "localprovince" : "广东",
    "longitude" : 113.408934,
    "fencha" : "113",
    "provincescore" : "360",
    "var_score" : "473",
    "var" : "473",
    "min" : "461",
    "schoolname" : "广东药科大学",
    "latitude" : 23.055111,
    "year" : "2017",
    "batch" : "本科二批",
    "max" : "515"
  },
  {
    "studenttype" : "理科",
    "province" : "广东",
    "num" : "0",
    "schoolid" : "297",
    "localprovince" : "广东",
    "longitude" : 116.65846999999999,
    "fencha" : "74",
    "provincescore" : "360",
    "var_score" : "434",
    "var" : "434",
    "min" : "427",
    "schoolname" : "韩山师范学院",
    "latitude" : 23.661964000000001,
    "year" : "2017",
    "batch" : "本科二批",
    "max" : "--"
  },
  {
    "studenttype" : "理科",
    "province" : "广东",
    "num" : "0",
    "schoolid" : "298",
    "localprovince" : "广东",
    "longitude" : 113.669633,
    "fencha" : "79",
    "provincescore" : "360",
    "var_score" : "439",
    "var" : "439",
    "min" : "431",
    "schoolname" : "韶关学院",
    "latitude" : 24.77384,
    "year" : "2017",
    "batch" : "本科二批",
    "max" : "--"
  },
  {
    "studenttype" : "理科",
    "province" : "广东",
    "num" : "0",
    "schoolid" : "299",
    "localprovince" : "广东",
    "longitude" : 110.34955600000001,
    "fencha" : "108",
    "provincescore" : "360",
    "var_score" : "468",
    "var" : "468",
    "min" : "457",
    "schoolname" : "岭南师范学院",
    "latitude" : 21.26952,
    "year" : "2017",
    "batch" : "本科二批",
    "max" : "--"
  },
  {
    "studenttype" : "理科",
    "province" : "广东",
    "num" : "0",
    "schoolid" : "299",
    "localprovince" : "广东",
    "longitude" : 110.34955600000001,
    "fencha" : "108",
    "provincescore" : "360",
    "var_score" : "468",
    "var" : "468",
    "min" : "457",
    "schoolname" : "岭南师范学院",
    "latitude" : 21.26952,
    "year" : "2017",
    "batch" : "本科二批",
    "max" : "--"
  },
  {
    "studenttype" : "理科",
    "province" : "广东",
    "num" : "0",
    "schoolid" : "300",
    "localprovince" : "广东",
    "longitude" : 114.42166400000001,
    "fencha" : "99",
    "provincescore" : "360",
    "var_score" : "459",
    "var" : "459",
    "min" : "449",
    "schoolname" : "惠州学院",
    "latitude" : 23.038613999999999,
    "year" : "2017",
    "batch" : "本科二批",
    "max" : "535"
  },
  {
    "studenttype" : "理科",
    "province" : "广东",
    "num" : "0",
    "schoolid" : "300",
    "localprovince" : "广东",
    "longitude" : 114.42166400000001,
    "fencha" : "99",
    "provincescore" : "360",
    "var_score" : "459",
    "var" : "459",
    "min" : "449",
    "schoolname" : "惠州学院",
    "latitude" : 23.038613999999999,
    "year" : "2017",
    "batch" : "本科二批",
    "max" : "535"
  },
  {
    "studenttype" : "理科",
    "province" : "广东",
    "num" : "0",
    "schoolid" : "301",
    "localprovince" : "广东",
    "longitude" : 116.127319,
    "fencha" : "76",
    "provincescore" : "360",
    "var_score" : "436",
    "var" : "436",
    "min" : "429",
    "schoolname" : "嘉应学院",
    "latitude" : 24.326976999999999,
    "year" : "2017",
    "batch" : "本科二批",
    "max" : "--"
  },
  {
    "studenttype" : "理科",
    "province" : "广东",
    "num" : "0",
    "schoolid" : "301",
    "localprovince" : "广东",
    "longitude" : 116.127319,
    "fencha" : "76",
    "provincescore" : "360",
    "var_score" : "436",
    "var" : "436",
    "min" : "429",
    "schoolname" : "嘉应学院",
    "latitude" : 24.326976999999999,
    "year" : "2017",
    "batch" : "本科二批",
    "max" : "--"
  },
  {
    "studenttype" : "理科",
    "province" : "广东",
    "num" : "0",
    "schoolid" : "302",
    "localprovince" : "广东",
    "longitude" : 113.354389,
    "fencha" : "139",
    "provincescore" : "360",
    "var_score" : "499",
    "var" : "499",
    "min" : "491",
    "schoolname" : "广东财经大学",
    "latitude" : 23.089897000000001,
    "year" : "2017",
    "batch" : "本科二批",
    "max" : "565"
  },
  {
    "studenttype" : "理科",
    "province" : "广东",
    "num" : "0",
    "schoolid" : "303",
    "localprovince" : "广东",
    "longitude" : 113.319108,
    "fencha" : "86",
    "provincescore" : "360",
    "var_score" : "446",
    "var" : "446",
    "min" : "438",
    "schoolname" : "广州体育学院",
    "latitude" : 23.143488999999999,
    "year" : "2017",
    "batch" : "本科二批",
    "max" : "--"
  },
  {
    "studenttype" : "理科",
    "province" : "广东",
    "num" : "0",
    "schoolid" : "304",
    "localprovince" : "广东",
    "longitude" : 113.383312,
    "fencha" : "135",
    "provincescore" : "360",
    "var_score" : "495",
    "var" : "495",
    "min" : "360",
    "schoolname" : "广州美术学院",
    "latitude" : 23.039804,
    "year" : "2017",
    "batch" : "本科二批",
    "max" : "--"
  },
  {
    "studenttype" : "理科",
    "province" : "广东",
    "num" : "0",
    "schoolid" : "306",
    "localprovince" : "广东",
    "longitude" : 113.10010699999999,
    "fencha" : "2",
    "provincescore" : "485",
    "var_score" : "487",
    "var" : "487",
    "min" : "485",
    "schoolname" : "佛山科学技术学院",
    "latitude" : 23.024339000000001,
    "year" : "2017",
    "batch" : "本科一批",
    "max" : "--"
  },
  {
    "studenttype" : "理科",
    "province" : "广东",
    "num" : "0",
    "schoolid" : "306",
    "localprovince" : "广东",
    "longitude" : 113.10010699999999,
    "fencha" : "2",
    "provincescore" : "485",
    "var_score" : "487",
    "var" : "487",
    "min" : "485",
    "schoolname" : "佛山科学技术学院",
    "latitude" : 23.024339000000001,
    "year" : "2017",
    "batch" : "本科一批",
    "max" : "--"
  },
  {
    "studenttype" : "理科",
    "province" : "广东",
    "num" : "0",
    "schoolid" : "633",
    "localprovince" : "广东",
    "longitude" : 113.181218,
    "fencha" : "0",
    "provincescore" : "--",
    "var_score" : "271",
    "var" : "271",
    "min" : "200",
    "schoolname" : "广州工商学院",
    "latitude" : 23.440170999999999,
    "year" : "2017",
    "batch" : "专科批",
    "max" : "418"
  },
  {
    "studenttype" : "理科",
    "province" : "广东",
    "num" : "0",
    "schoolid" : "633",
    "localprovince" : "广东",
    "longitude" : 113.181218,
    "fencha" : "0",
    "provincescore" : "--",
    "var_score" : "271",
    "var" : "271",
    "min" : "200",
    "schoolname" : "广州工商学院",
    "latitude" : 23.440170999999999,
    "year" : "2017",
    "batch" : "专科批",
    "max" : "418"
  },
  {
    "studenttype" : "理科",
    "province" : "广东",
    "num" : "0",
    "schoolid" : "636",
    "localprovince" : "广东",
    "longitude" : 113.61729,
    "fencha" : "0",
    "provincescore" : "--",
    "var_score" : "237",
    "var" : "237",
    "min" : "175",
    "schoolname" : "广州南洋理工职业学院",
    "latitude" : 23.582297000000001,
    "year" : "2017",
    "batch" : "专科批",
    "max" : "435"
  },
  {
    "studenttype" : "理科",
    "province" : "广东",
    "num" : "0",
    "schoolid" : "638",
    "localprovince" : "广东",
    "longitude" : 113.208066,
    "fencha" : "0",
    "provincescore" : "--",
    "var_score" : "351",
    "var" : "351",
    "min" : "327",
    "schoolname" : "广州铁路职业技术学院",
    "latitude" : 23.200962000000001,
    "year" : "2017",
    "batch" : "专科批",
    "max" : "467"
  },
  {
    "studenttype" : "理科",
    "province" : "广东",
    "num" : "0",
    "schoolid" : "643",
    "localprovince" : "广东",
    "longitude" : 113.26653,
    "fencha" : "28",
    "provincescore" : "360",
    "var_score" : "388",
    "var" : "388",
    "min" : "378",
    "schoolname" : "广东东软学院",
    "latitude" : 23.132190999999999,
    "year" : "2017",
    "batch" : "本科二批",
    "max" : "480"
  },
  {
    "studenttype" : "理科",
    "province" : "广东",
    "num" : "0",
    "schoolid" : "643",
    "localprovince" : "广东",
    "longitude" : 113.26653,
    "fencha" : "28",
    "provincescore" : "360",
    "var_score" : "388",
    "var" : "388",
    "min" : "378",
    "schoolname" : "广东东软学院",
    "latitude" : 23.132190999999999,
    "year" : "2017",
    "batch" : "本科二批",
    "max" : "480"
  },
  {
    "studenttype" : "理科",
    "province" : "广东",
    "num" : "0",
    "schoolid" : "960",
    "localprovince" : "广东",
    "longitude" : 114.360916,
    "fencha" : "65",
    "provincescore" : "485",
    "var_score" : "550",
    "var" : "550",
    "min" : "523",
    "schoolname" : "南方医科大学",
    "latitude" : 23.027832,
    "year" : "2017",
    "batch" : "本科一批",
    "max" : "620"
  },
  {
    "studenttype" : "理科",
    "province" : "广东",
    "num" : "0",
    "schoolid" : "961",
    "localprovince" : "广东",
    "longitude" : 112.495301,
    "fencha" : "88",
    "provincescore" : "360",
    "var_score" : "448",
    "var" : "448",
    "min" : "440",
    "schoolname" : "肇庆学院",
    "latitude" : 23.107271999999998,
    "year" : "2017",
    "batch" : "本科二批",
    "max" : "--"
  },
  {
    "studenttype" : "理科",
    "province" : "广东",
    "num" : "0",
    "schoolid" : "963",
    "localprovince" : "广东",
    "longitude" : 113.306521,
    "fencha" : "106",
    "provincescore" : "360",
    "var_score" : "466",
    "var" : "466",
    "min" : "454",
    "schoolname" : "广东警官学院",
    "latitude" : 23.254332000000002,
    "year" : "2017",
    "batch" : "本科二批",
    "max" : "--"
  },
  {
    "studenttype" : "理科",
    "province" : "广东",
    "num" : "0",
    "schoolid" : "965",
    "localprovince" : "广东",
    "longitude" : 113.09084799999999,
    "fencha" : "33",
    "provincescore" : "360",
    "var_score" : "393",
    "var" : "393",
    "min" : "381",
    "schoolname" : "广东培正学院",
    "latitude" : 23.410466,
    "year" : "2017",
    "batch" : "本科二批",
    "max" : "--"
  },
  {
    "studenttype" : "理科",
    "province" : "广东",
    "num" : "0",
    "schoolid" : "966",
    "localprovince" : "广东",
    "longitude" : 113.208619,
    "fencha" : "25",
    "provincescore" : "360",
    "var_score" : "385",
    "var" : "385",
    "min" : "375",
    "schoolname" : "广东白云学院",
    "latitude" : 23.271294000000001,
    "year" : "2017",
    "batch" : "本科二批",
    "max" : "--"
  },
  {
    "studenttype" : "理科",
    "province" : "广东",
    "num" : "0",
    "schoolid" : "967",
    "localprovince" : "广东",
    "longitude" : 113.478964,
    "fencha" : "82",
    "provincescore" : "360",
    "var_score" : "442",
    "var" : "442",
    "min" : "434",
    "schoolname" : "广州航海学院",
    "latitude" : 23.101616,
    "year" : "2017",
    "batch" : "本科二批",
    "max" : "--"
  },
  {
    "studenttype" : "理科",
    "province" : "广东",
    "num" : "0",
    "schoolid" : "977",
    "localprovince" : "广东",
    "longitude" : 113.172819,
    "fencha" : "22",
    "provincescore" : "360",
    "var_score" : "382",
    "var" : "382",
    "min" : "360",
    "schoolname" : "广东理工学院",
    "latitude" : 23.43403,
    "year" : "2017",
    "batch" : "本科二批",
    "max" : "--"
  },
  {
    "studenttype" : "理科",
    "province" : "广东",
    "num" : "0",
    "schoolid" : "997",
    "localprovince" : "广东",
    "longitude" : 113.311544,
    "fencha" : "0",
    "provincescore" : "--",
    "var_score" : "0",
    "var" : "0",
    "min" : "297",
    "schoolname" : "广东女子职业技术学院",
    "latitude" : 23.099512000000001,
    "year" : "2017",
    "batch" : "专科批",
    "max" : "--"
  },
  {
    "studenttype" : "理科",
    "province" : "广东",
    "num" : "0",
    "schoolid" : "999",
    "localprovince" : "广东",
    "longitude" : 113.380539,
    "fencha" : "0",
    "provincescore" : "--",
    "var_score" : "257",
    "var" : "257",
    "min" : "200",
    "schoolname" : "广州现代信息工程职业技术学院",
    "latitude" : 23.213832,
    "year" : "2017",
    "batch" : "专科批",
    "max" : "381"
  },
  {
    "studenttype" : "理科",
    "province" : "广东",
    "num" : "0",
    "schoolid" : "1001",
    "localprovince" : "广东",
    "longitude" : 113.35561300000001,
    "fencha" : "0",
    "provincescore" : "--",
    "var_score" : "263",
    "var" : "263",
    "min" : "200",
    "schoolname" : "广州涉外经济职业技术学院",
    "latitude" : 23.257193999999998,
    "year" : "2017",
    "batch" : "专科批",
    "max" : "417"
  },
  {
    "studenttype" : "理科",
    "province" : "广东",
    "num" : "0",
    "schoolid" : "1031",
    "localprovince" : "广东",
    "longitude" : 113.380731,
    "fencha" : "126",
    "provincescore" : "360",
    "var_score" : "486",
    "var" : "486",
    "min" : "478",
    "schoolname" : "广东金融学院",
    "latitude" : 23.202539999999999,
    "year" : "2017",
    "batch" : "本科二批",
    "max" : "--"
  },
  {
    "studenttype" : "理科",
    "province" : "广东",
    "num" : "0",
    "schoolid" : "1096",
    "localprovince" : "广东",
    "longitude" : 113.67940400000001,
    "fencha" : "41",
    "provincescore" : "360",
    "var_score" : "401",
    "var" : "401",
    "min" : "303",
    "schoolname" : "中山大学南方学院",
    "latitude" : 23.632674000000002,
    "year" : "2017",
    "batch" : "本科二批",
    "max" : "479"
  },
  {
    "studenttype" : "理科",
    "province" : "广东",
    "num" : "0",
    "schoolid" : "1275",
    "localprovince" : "广东",
    "longitude" : 116.36448900000001,
    "fencha" : "0",
    "provincescore" : "--",
    "var_score" : "513",
    "var" : "513",
    "min" : "495",
    "schoolname" : "北京师范大学-香港浸会大学联合国际学院",
    "latitude" : 39.964655,
    "year" : "2017",
    "batch" : "本科提前批",
    "max" : "564"
  },
  {
    "studenttype" : "理科",
    "province" : "广东",
    "num" : "0",
    "schoolid" : "1285",
    "localprovince" : "广东",
    "longitude" : 113.38773999999999,
    "fencha" : "45",
    "provincescore" : "360",
    "var_score" : "405",
    "var" : "405",
    "min" : "395",
    "schoolname" : "中山大学新华学院",
    "latitude" : 23.195060000000002,
    "year" : "2017",
    "batch" : "本科二批",
    "max" : "469"
  },
  {
    "studenttype" : "理科",
    "province" : "广东",
    "num" : "0",
    "schoolid" : "1297",
    "localprovince" : "广东",
    "longitude" : 113.726044,
    "fencha" : "45",
    "provincescore" : "360",
    "var_score" : "405",
    "var" : "405",
    "min" : "397",
    "schoolname" : "广州大学松田学院",
    "latitude" : 23.277076999999998,
    "year" : "2017",
    "batch" : "本科二批",
    "max" : "440"
  },
  {
    "studenttype" : "理科",
    "province" : "广东",
    "num" : "0",
    "schoolid" : "1298",
    "localprovince" : "广东",
    "longitude" : 113.5423000000,
    "fencha" : "66",
    "provincescore" : "360",
    "var_score" : "426",
    "var" : "426",
    "min" : "414",
    "schoolname" : "北京理工大学珠海学院",
    "latitude" : 22.3632500000,
    "year" : "2017",
    "batch" : "本科二批",
    "max" : "516",
    "fix": 1
  },
  {
    "studenttype" : "理科",
    "province" : "广东",
    "num" : "0",
    "schoolid" : "1308",
    "localprovince" : "广东",
    "longitude" : 113.49545999999999,
    "fencha" : "38",
    "provincescore" : "360",
    "var_score" : "398",
    "var" : "398",
    "min" : "389",
    "schoolname" : "广州大学华软软件学院",
    "latitude" : 23.451063000000001,
    "year" : "2017",
    "batch" : "本科二批",
    "max" : "464"
  },
  {
    "studenttype" : "理科",
    "province" : "广东",
    "num" : "0",
    "schoolid" : "1455",
    "localprovince" : "广东",
    "longitude" : 113.4046400000,
    "fencha" : "68",
    "provincescore" : "360",
    "var_score" : "428",
    "var" : "428",
    "min" : "418",
    "schoolname" : "吉林大学珠海学院",
    "latitude" : 22.0491500000,
    "year" : "2017",
    "batch" : "本科二批",
    "max" : "--",
    "fix": 1
  },
  {
    "studenttype" : "理科",
    "province" : "广东",
    "num" : "0",
    "schoolid" : "2054",
    "localprovince" : "广东",
    "longitude" : 116.36448900000001,
    "fencha" : "96",
    "provincescore" : "360",
    "var_score" : "456",
    "var" : "456",
    "min" : "440",
    "schoolname" : "北京师范大学珠海分校",
    "latitude" : 39.964655,
    "year" : "2017",
    "batch" : "本科二批",
    "max" : "535"
  },
  {
    "studenttype" : "理科",
    "province" : "广东",
    "num" : "0",
    "schoolid" : "2055",
    "localprovince" : "广东",
    "longitude" : 113.568817,
    "fencha" : "0",
    "provincescore" : "--",
    "var_score" : "330",
    "var" : "330",
    "min" : "297",
    "schoolname" : "广州商学院",
    "latitude" : 23.303581000000001,
    "year" : "2017",
    "batch" : "专科批",
    "max" : "353"
  },
  {
    "studenttype" : "理科",
    "province" : "广东",
    "num" : "0",
    "schoolid" : "2055",
    "localprovince" : "广东",
    "longitude" : 113.568817,
    "fencha" : "0",
    "provincescore" : "--",
    "var_score" : "330",
    "var" : "330",
    "min" : "297",
    "schoolname" : "广州商学院",
    "latitude" : 23.303581000000001,
    "year" : "2017",
    "batch" : "专科批",
    "max" : "353"
  },
  {
    "studenttype" : "理科",
    "province" : "广东",
    "num" : "0",
    "schoolid" : "2056",
    "localprovince" : "广东",
    "longitude" : 113.86599,
    "fencha" : "33",
    "provincescore" : "360",
    "var_score" : "393",
    "var" : "393",
    "min" : "383",
    "schoolname" : "广东工业大学华立学院",
    "latitude" : 23.242380000000001,
    "year" : "2017",
    "batch" : "本科二批",
    "max" : "--"
  },
  {
    "studenttype" : "理科",
    "province" : "广东",
    "num" : "0",
    "schoolid" : "2057",
    "localprovince" : "广东",
    "longitude" : 113.579018,
    "fencha" : "19",
    "provincescore" : "360",
    "var_score" : "379",
    "var" : "379",
    "min" : "369",
    "schoolname" : "华南农业大学珠江学院",
    "latitude" : 23.513548,
    "year" : "2017",
    "batch" : "本科二批",
    "max" : "--"
  },
  {
    "studenttype" : "理科",
    "province" : "广东",
    "num" : "0",
    "schoolid" : "2058",
    "localprovince" : "广东",
    "longitude" : 113.37067500000001,
    "fencha" : "14",
    "provincescore" : "360",
    "var_score" : "374",
    "var" : "374",
    "min" : "364",
    "schoolname" : "广东技术师范学院天河学院",
    "latitude" : 23.131698,
    "year" : "2017",
    "batch" : "本科二批",
    "max" : "468"
  },
  {
    "studenttype" : "理科",
    "province" : "广东",
    "num" : "0",
    "schoolid" : "2059",
    "localprovince" : "广东",
    "longitude" : 113.172819,
    "fencha" : "92",
    "provincescore" : "360",
    "var_score" : "452",
    "var" : "452",
    "min" : "409",
    "schoolname" : "华南理工大学广州学院",
    "latitude" : 23.43403,
    "year" : "2017",
    "batch" : "本科二批",
    "max" : "494"
  },
  {
    "studenttype" : "理科",
    "province" : "广东",
    "num" : "0",
    "schoolid" : "2060",
    "localprovince" : "广东",
    "longitude" : 113.780258,
    "fencha" : "46",
    "provincescore" : "360",
    "var_score" : "406",
    "var" : "406",
    "min" : "399",
    "schoolname" : "广东财经大学华商学院",
    "latitude" : 23.257580000000001,
    "year" : "2017",
    "batch" : "本科二批",
    "max" : "462"
  },
  {
    "studenttype" : "理科",
    "province" : "广东",
    "num" : "0",
    "schoolid" : "2061",
    "localprovince" : "广东",
    "longitude" : 113.384062,
    "fencha" : "62",
    "provincescore" : "360",
    "var_score" : "422",
    "var" : "422",
    "min" : "411",
    "schoolname" : "广东外语外贸大学南国商学院",
    "latitude" : 23.337938000000001,
    "year" : "2017",
    "batch" : "本科二批",
    "max" : "515"
  },
  {
    "studenttype" : "理科",
    "province" : "广东",
    "num" : "0",
    "schoolid" : "2063",
    "localprovince" : "广东",
    "longitude" : 113.726044,
    "fencha" : "0",
    "provincescore" : "--",
    "var_score" : "262",
    "var" : "262",
    "min" : "200",
    "schoolname" : "广州松田职业学院",
    "latitude" : 23.277076999999998,
    "year" : "2017",
    "batch" : "专科批",
    "max" : "374"
  },
  {
    "studenttype" : "理科",
    "province" : "广东",
    "num" : "0",
    "schoolid" : "2480",
    "localprovince" : "广东",
    "longitude" : 113.280441,
    "fencha" : "100",
    "provincescore" : "360",
    "var_score" : "460",
    "var" : "460",
    "min" : "448",
    "schoolname" : "仲恺农业工程学院",
    "latitude" : 23.107883000000001,
    "year" : "2017",
    "batch" : "本科二批",
    "max" : "--"
  },
  {
    "studenttype" : "理科",
    "province" : "广东",
    "num" : "0",
    "schoolid" : "2483",
    "localprovince" : "广东",
    "longitude" : 113.84077600000001,
    "fencha" : "32",
    "provincescore" : "360",
    "var_score" : "392",
    "var" : "392",
    "min" : "381",
    "schoolname" : "东莞理工学院城市学院",
    "latitude" : 22.978708999999998,
    "year" : "2017",
    "batch" : "本科二批",
    "max" : "--"
  },
  {
    "studenttype" : "理科",
    "province" : "广东",
    "num" : "0",
    "schoolid" : "2610",
    "localprovince" : "广东",
    "longitude" : 113.185529,
    "fencha" : "106",
    "provincescore" : "360",
    "var_score" : "466",
    "var" : "466",
    "min" : "457",
    "schoolname" : "广东第二师范学院",
    "latitude" : 23.404973999999999,
    "year" : "2017",
    "batch" : "本科二批",
    "max" : "--"
  },
  {
    "studenttype" : "理科",
    "province" : "广东",
    "num" : "0",
    "schoolid" : "2835",
    "localprovince" : "广东",
    "longitude" : 113.300016,
    "fencha" : "15",
    "provincescore" : "360",
    "var_score" : "375",
    "var" : "375",
    "min" : "363",
    "schoolname" : "广东科技学院",
    "latitude" : 23.140084000000002,
    "year" : "2017",
    "batch" : "本科二批",
    "max" : "440"
  },
  {
    "studenttype" : "理科",
    "province" : "广东",
    "num" : "0",
    "schoolid" : "2941",
    "localprovince" : "广东",
    "longitude" : 113.987724,
    "fencha" : "0",
    "provincescore" : "--",
    "var_score" : "596",
    "var" : "596",
    "min" : "--",
    "schoolname" : "南方科技大学",
    "latitude" : 22.593589999999999,
    "year" : "2017",
    "batch" : "本科提前批",
    "max" : "--"
  },
  {
    "studenttype" : "理科",
    "province" : "广东",
    "num" : "0",
    "schoolid" : "3241",
    "localprovince" : "广东",
    "longitude" : 113.26653,
    "fencha" : "0",
    "provincescore" : "--",
    "var_score" : "539",
    "var" : "539",
    "min" : "509",
    "schoolname" : "广东以色列理工学院",
    "latitude" : 23.132190999999999,
    "year" : "2017",
    "batch" : "本科提前批",
    "max" : "604"
  },
  {
    "studenttype" : "理科",
    "province" : "广东",
    "num" : "0",
    "schoolid" : "3251",
    "localprovince" : "广东",
    "longitude" : 114.205788,
    "fencha" : "0",
    "provincescore" : "--",
    "var_score" : "521",
    "var" : "521",
    "min" : "--",
    "schoolname" : "深圳北理莫斯科大学",
    "latitude" : 22.679319,
    "year" : "2017",
    "batch" : "本科提前批",
    "max" : "583"
  },
  {
    "studenttype" : "理科",
    "province" : "广东",
    "num" : "0",
    "schoolid" : "3255",
    "localprovince" : "广东",
    "longitude" : 113.9702400000,
    "fencha" : "107",
    "provincescore" : "485",
    "var_score" : "592",
    "var" : "592",
    "min" : "581",
    "schoolname" : "哈尔滨工业大学（深圳）",
    "latitude" : 22.5887400000,
    "year" : "2017",
    "batch" : "本科一批",
    "max" : "624",
    "fix": 1
  }
]
